{
		"animeAdkami":[
		{
			"Title":"Detective Conan",
			"Episode":1002,
			"Type episode":"Episode",
			"Voice":"vostfr",
			"Picture":"https://image.adkami.com/mini/7.jpg",
			"Hours":"12:30",
			"Day":"Lundi"
		},
		{
			"Title":"Koi to Yobu ni wa Kimochi Warui",
			"Episode":4,
			"Type episode":"Episode",
			"Voice":"vostfr",
			"Picture":"https://image.adkami.com/mini/4119.jpg?1617045817",
			"Hours":"14:45",
			"Day":"Lundi"
		},
		{
			"Title":"Yakunara Mug Cup Mo",
			"Episode":3,
			"Type episode":"Episode",
			"Voice":"vostfr",
			"Picture":"https://image.adkami.com/mini/4127.jpg?1617356031",
			"Hours":"16:30",
			"Day":"Lundi"
		},
		{
			"Title":"Hige wo Soru. Soshite Joshikosei wo Hirou.",
			"Episode":3,
			"Type episode":"Episode",
			"Voice":"vostfr",
			"Picture":"https://image.adkami.com/mini/4139.jpg?1617609146",
			"Hours":"17:00",
			"Day":"Lundi"
		},
		{
			"Title":"Itazuraguma no Gloomy",
			"Episode":2,
			"Type episode":"Episode",
			"Voice":"vostfr",
			"Picture":"https://image.adkami.com/mini/4163.jpg?1618246048",
			"Hours":"17:30",
			"Day":"Lundi"
		},
		{
			"Title":"Fumetsu no Anata e",
			"Episode":2,
			"Type episode":"Episode",
			"Voice":"vostfr",
			"Picture":"https://image.adkami.com/mini/4162.jpg?1618224842",
			"Hours":"18:30",
			"Day":"Lundi"
		},
		{
			"Title":"Fruits Basket (2019) S3",
			"Episode":3,
			"Type episode":"Episode",
			"Voice":"vostfr",
			"Picture":"https://image.adkami.com/mini/3339.jpg?1554485002",
			"Hours":"19:35",
			"Day":"Lundi"
		},
		{
			"Title":"MARS RED",
			"Episode":3,
			"Type episode":"Episode",
			"Voice":"vostfr",
			"Picture":"https://image.adkami.com/mini/4118.jpg?1617005561",
			"Hours":"20:00",
			"Day":"Lundi"
		},
		{
			"Title":"Odd Taxi",
			"Episode":3,
			"Type episode":"Episode",
			"Voice":"vostfr",
			"Picture":"https://image.adkami.com/mini/4140.jpg?1617714043",
			"Hours":"20:30",
			"Day":"Lundi"
		},
		{
			"Title":"Tensura Nikki Tensei Shitara Slime Datta Ken",
			"Episode":3,
			"Type episode":"Episode",
			"Voice":"vostfr",
			"Picture":"https://image.adkami.com/mini/4142.jpg?1617715197",
			"Hours":"17:00",
			"Day":"Mardi"
		},
		{
			"Title":"Seijo no Maryoku wa Bannou desu",
			"Episode":3,
			"Type episode":"Episode",
			"Voice":"vostfr",
			"Picture":"https://image.adkami.com/mini/4141.jpg?1617714705",
			"Hours":"17:30",
			"Day":"Mardi"
		},
		{
			"Title":"Jouran : The Princess of Snow and Blood",
			"Episode":4,
			"Type episode":"Episode",
			"Voice":"vostfr",
			"Picture":"https://image.adkami.com/mini/4121.jpg?1617097355",
			"Hours":"18:00",
			"Day":"Mardi"
		},
		{
			"Title":"Kobayashi-san Chi no Maid Dragon S2",
			"Episode":3,
			"Type episode":"Sp√©cial",
			"Voice":"vostfr",
			"Picture":"https://image.adkami.com/mini/2009.jpg?=1484121509",
			"Hours":"12:00",
			"Day":"Mercredi"
		},
		{
			"Title":"Omoi, Omoware, Furi, Furare",
			"Episode":1,
			"Type episode":"Film",
			"Voice":"vostfr",
			"Picture":"https://image.adkami.com/mini/4171.jpg?1619006371",
			"Hours":"14:00",
			"Day":"Mercredi"
		},
		{
			"Title":"Osananajimi ga Zettai ni Makenai Love Comedy",
			"Episode":2,
			"Type episode":"Episode",
			"Voice":"vostfr",
			"Picture":"https://image.adkami.com/mini/4164.jpg?1618380944",
			"Hours":"15:00",
			"Day":"Mercredi"
		},
		{
			"Title":"Kyuukyoku Shinka shita Full Dive RPG ga Genjitsu yori mo Kusoge Dattara",
			"Episode":3,
			"Type episode":"Episode",
			"Voice":"vostfr",
			"Picture":"https://image.adkami.com/mini/4143.jpg?1617797187",
			"Hours":"16:30",
			"Day":"Mercredi"
		},
		{
			"Title":"Super Cub",
			"Episode":3,
			"Type episode":"Episode",
			"Voice":"vostfr",
			"Picture":"https://image.adkami.com/mini/4144.jpg?1617797505",
			"Hours":"17:00",
			"Day":"Mercredi"
		},
		{
			"Title":"Hetalia : Axis Powers S5",
			"Episode":4,
			"Type episode":"Episode",
			"Voice":"vostfr",
			"Picture":"https://image.adkami.com/mini/814.jpg",
			"Hours":"18:00",
			"Day":"Mercredi"
		},
		{
			"Title":"Cestvs : The Roman Fighter",
			"Episode":2,
			"Type episode":"Episode",
			"Voice":"vostfr",
			"Picture":"https://image.adkami.com/mini/4165.jpg?1618427915",
			"Hours":"20:30",
			"Day":"Mercredi"
		},
		{
			"Title":"Maiko-san Chi no Makanai-san",
			"Episode":3,
			"Type episode":"Episode",
			"Voice":"vostfr",
			"Picture":"https://image.adkami.com/mini/4078.jpg?1614275739",
			"Hours":"05:00",
			"Day":"Jeudi"
		},
		{
			"Title":"SD Gundam World Heroes",
			"Episode":3,
			"Type episode":"Episode",
			"Voice":"vostfr",
			"Picture":"https://image.adkami.com/mini/4145.jpg?1617888247",
			"Hours":"12:00",
			"Day":"Jeudi"
		},
		{
			"Title":"Nanatsu no Taizai S4",
			"Episode":15,
			"Type episode":"Episode",
			"Voice":"vostfr",
			"Picture":"https://image.adkami.com/mini/1267.jpg?1515594987",
			"Hours":"14:30",
			"Day":"Jeudi"
		},
		{
			"Title":"Nanatsu no Taizai S4",
			"Episode":3,
			"Type episode":"Episode",
			"Voice":"vostfr",
			"Picture":"https://image.adkami.com/mini/4146.jpg?1617896579",
			"Hours":"17:00",
			"Day":"Jeudi"
		},
		{
			"Title":"Zombieland Saga S2",
			"Episode":3,
			"Type episode":"Episode",
			"Voice":"vostfr",
			"Picture":"https://image.adkami.com/mini/3080.jpg?1538667893",
			"Hours":"17:30",
			"Day":"Jeudi"
		},
		{
			"Title":"Bakuten!!",
			"Episode":3,
			"Type episode":"Episode",
			"Voice":"vostfr",
			"Picture":"https://image.adkami.com/mini/4147.jpg?1617907751",
			"Hours":"20:15",
			"Day":"Jeudi"
		},
		{
			"Title":"Isekai Maou to Shoukan Shoujo no Dorei Majutsu S2",
			"Episode":3,
			"Type episode":"Episode",
			"Voice":"vostfr",
			"Picture":"https://image.adkami.com/mini/2954.jpg?1530798794",
			"Hours":"20:45",
			"Day":"Jeudi"
		},
		{
			"Title":"Dr. Stone S2",
			"Episode":9,
			"Type episode":"Episode",
			"Voice":"vf",
			"Picture":"https://image.adkami.com/mini/3488.jpg?1562337049",
			"Hours":"21:00",
			"Day":"Jeudi"
		},
		{
			"Title":"Shaman King (2021)",
			"Episode":4,
			"Type episode":"Episode",
			"Voice":"vostfr",
			"Picture":"https://image.adkami.com/mini/4123.jpg?1617313065",
			"Hours":"23:00",
			"Day":"Jeudi"
		},
		{
			"Title":"Ore dake Haireru Kakushi Dungeon",
			"Episode":9,
			"Type episode":"Episode",
			"Voice":"vf",
			"Picture":"https://image.adkami.com/mini/4035.jpg?1610098943",
			"Hours":"13:00",
			"Day":"Vendredi"
		},
		{
			"Title":"Kumo Desu ga, Nani ka?",
			"Episode":15,
			"Type episode":"Episode",
			"Voice":"vostfr",
			"Picture":"https://image.adkami.com/mini/4036.jpg?1610099412",
			"Hours":"15:30",
			"Day":"Vendredi"
		},
		{
			"Title":"SSSS.Dynazenon",
			"Episode":4,
			"Type episode":"Episode",
			"Voice":"vostfr",
			"Picture":"https://image.adkami.com/mini/4124.jpg?1617354700",
			"Hours":"16:00",
			"Day":"Vendredi"
		},
		{
			"Title":"Back Arrow",
			"Episode":16,
			"Type episode":"Episode",
			"Voice":"vostfr",
			"Picture":"https://image.adkami.com/mini/4033.jpg?1610098260",
			"Hours":"18:30",
			"Day":"Vendredi"
		},
		{
			"Title":"Shakunetsu Kabaddi",
			"Episode":4,
			"Type episode":"Episode",
			"Voice":"vostfr",
			"Picture":"https://image.adkami.com/mini/4125.jpg?1617355395",
			"Hours":"19:23",
			"Day":"Vendredi"
		},
		{
			"Title":"Subarashiki Kono Sekai the Animation",
			"Episode":3,
			"Type episode":"Episode",
			"Voice":"vostfr",
			"Picture":"https://image.adkami.com/mini/4151.jpg?1617973804",
			"Hours":"19:25",
			"Day":"Vendredi"
		},
		{
			"Title":"Blue Reflection Ray",
			"Episode":3,
			"Type episode":"Episode",
			"Voice":"vostfr",
			"Picture":"https://image.adkami.com/mini/4152.jpg?1617974153",
			"Hours":"19:55",
			"Day":"Vendredi"
		},
		{
			"Title":"Mashiro no Oto",
			"Episode":4,
			"Type episode":"Episode",
			"Voice":"vostfr",
			"Picture":"https://image.adkami.com/mini/4126.jpg?1617355769",
			"Hours":"20:45",
			"Day":"Vendredi"
		},
		{
			"Title":"Kumo Desu ga, Nani ka?",
			"Episode":10,
			"Type episode":"Episode",
			"Voice":"vf",
			"Picture":"https://image.adkami.com/mini/4036.jpg?1610099412",
			"Hours":"22:00",
			"Day":"Vendredi"
		},
		{
			"Title":"Jujutsu Kaisen",
			"Episode":21,
			"Type episode":"Episode",
			"Voice":"vf",
			"Picture":"https://image.adkami.com/mini/3922.jpg?1601663601",
			"Hours":"23:00",
			"Day":"Vendredi"
		},
		{
			"Title":"Cardfight!! Vanguard: overDress",
			"Episode":4,
			"Type episode":"Episode",
			"Voice":"vostfr",
			"Picture":"https://image.adkami.com/mini/4133.jpg?1617442383",
			"Hours":"01:40",
			"Day":"Samedi"
		},
		{
			"Title":"Dragon Quest : Dai no Daibouken (2020)",
			"Episode":29,
			"Type episode":"Episode",
			"Voice":"vostfr",
			"Picture":"https://image.adkami.com/mini/3923.jpg?1601705331",
			"Hours":"04:00",
			"Day":"Samedi"
		},
		{
			"Title":"Boku no Hero Academia S5",
			"Episode":5,
			"Type episode":"Episode",
			"Voice":"vostfr",
			"Picture":"https://image.adkami.com/mini/1732.jpg?=1459674063",
			"Hours":"11:30",
			"Day":"Samedi"
		},
		{
			"Title":"Mairimashita! Iruma-kun S2",
			"Episode":2,
			"Type episode":"Episode",
			"Voice":"vostfr",
			"Picture":"https://image.adkami.com/mini/3595.jpg?1570277882",
			"Hours":"13:15",
			"Day":"Samedi"
		},
		{
			"Title":"Slime Taoshite 300-nen, Shiranai Uchi ni Level Max ni Nattemashita",
			"Episode":3,
			"Type episode":"Episode",
			"Voice":"vostfr",
			"Picture":"https://image.adkami.com/mini/4159.jpg?1618046196",
			"Hours":"15:30",
			"Day":"Samedi"
		},
		{
			"Title":"Thunderbolt Fantasy S3",
			"Episode":4,
			"Type episode":"Episode",
			"Voice":"vostfr",
			"Picture":"https://image.adkami.com/mini/1861.jpg?=1471192195",
			"Hours":"16:00",
			"Day":"Samedi"
		},
		{
			"Title":"Vivy : Fluorite Eye's Song",
			"Episode":5,
			"Type episode":"Episode",
			"Voice":"vostfr",
			"Picture":"https://image.adkami.com/mini/4131.jpg?1617440282",
			"Hours":"18:00",
			"Day":"Samedi"
		},
		{
			"Title":"Ijiranaide, Nagatoro-san",
			"Episode":3,
			"Type episode":"Episode",
			"Voice":"vostfr",
			"Picture":"https://image.adkami.com/mini/4158.jpg?1618045672",
			"Hours":"18:00",
			"Day":"Samedi"
		},
		{
			"Title":"Battle Athletess Daiundoukai ReSTART!",
			"Episode":3,
			"Type episode":"Episode",
			"Voice":"vostfr",
			"Picture":"https://image.adkami.com/mini/4157.jpg?1618045211",
			"Hours":"18:30",
			"Day":"Samedi"
		},
		{
			"Title":"86",
			"Episode":3,
			"Type episode":"Episode",
			"Voice":"vostfr",
			"Picture":"https://image.adkami.com/mini/4161.jpg?1618046940",
			"Hours":"18:30",
			"Day":"Samedi"
		},
		{
			"Title":"Shadows House",
			"Episode":3,
			"Type episode":"Episode",
			"Voice":"vostfr",
			"Picture":"https://image.adkami.com/mini/4155.jpg?1618042812",
			"Hours":"19:00",
			"Day":"Samedi"
		},
		{
			"Title":"Bishounen Tanteidan",
			"Episode":3,
			"Type episode":"Episode",
			"Voice":"vostfr",
			"Picture":"https://image.adkami.com/mini/4156.jpg?1618043935",
			"Hours":"20:30",
			"Day":"Samedi"
		},
		{
			"Title":"Tokyo Revengers",
			"Episode":3,
			"Type episode":"Episode",
			"Voice":"vostfr",
			"Picture":"https://image.adkami.com/mini/4160.jpg?1618090980",
			"Hours":"21:00",
			"Day":"Samedi"
		},
		{
			"Title":"Edens Zero",
			"Episode":3,
			"Type episode":"Episode",
			"Voice":"vostfr",
			"Picture":"https://image.adkami.com/mini/4120.jpg?1617095035",
			"Hours":"22:00",
			"Day":"Samedi"
		},
		{
			"Title":"Digimon Adventure (2020)",
			"Episode":45,
			"Type episode":"Episode",
			"Voice":"vostfr",
			"Picture":"https://image.adkami.com/mini/3772.jpg?1586084986",
			"Hours":"04:30",
			"Day":"Dimanche"
		},
		{
			"Title":"One Piece",
			"Episode":971,
			"Type episode":"Episode",
			"Voice":"vostfr",
			"Picture":"https://image.adkami.com/mini/3.png",
			"Hours":"09:00",
			"Day":"Dimanche"
		},
		{
			"Title":"Ladybug S4",
			"Episode":3,
			"Type episode":"Episode",
			"Voice":"vf",
			"Picture":"https://image.adkami.com/mini/2271.jpg?=1494866129",
			"Hours":"10:30",
			"Day":"Dimanche"
		},
		{
			"Title":"Boruto: Naruto Next Generations",
			"Episode":196,
			"Type episode":"Episode",
			"Voice":"vostfr",
			"Picture":"https://image.adkami.com/mini/1973.jpg?=1482452333",
			"Hours":"11:30",
			"Day":"Dimanche"
		},
		{
			"Title":"Sentouin, Hakenshimasu!",
			"Episode":4,
			"Type episode":"Episode",
			"Voice":"vostfr",
			"Picture":"https://image.adkami.com/mini/4135.jpg?1617519829",
			"Hours":"14:00",
			"Day":"Dimanche"
		},
		{
			"Title":"Yuukoku no Moriarty S2",
			"Episode":15,
			"Type episode":"Episode",
			"Voice":"vostfr",
			"Picture":"https://image.adkami.com/mini/3951.jpg?1602432349",
			"Hours":"16:00",
			"Day":"Dimanche"
		},
		{
			"Title":"Dragon, Ie wo Kau.",
			"Episode":4,
			"Type episode":"Episode",
			"Voice":"vostfr",
			"Picture":"https://image.adkami.com/mini/4136.jpg?1617520366",
			"Hours":"16:00",
			"Day":"Dimanche"
		},
		{
			"Title":"Megalo Box S2",
			"Episode":4,
			"Type episode":"Episode",
			"Voice":"vostfr",
			"Picture":"https://image.adkami.com/mini/2836.jpg?1522949403",
			"Hours":"17:00",
			"Day":"Dimanche"
		},
		{
			"Title":"Sayonara Watashi no Cramer",
			"Episode":4,
			"Type episode":"Episode",
			"Voice":"vostfr",
			"Picture":"https://image.adkami.com/mini/4137.jpg?1617520727",
			"Hours":"18:00",
			"Day":"Dimanche"
		},
		{
			"Title":"Seven Knights Revolution: Eiyuu no Keishousha",
			"Episode":4,
			"Type episode":"Episode",
			"Voice":"vostfr",
			"Picture":"https://image.adkami.com/mini/4138.jpg?1617554868",
			"Hours":"18:30",
			"Day":"Dimanche"
		},
		{
			"Title":"Kingdom S3",
			"Episode":4,
			"Type episode":"Episode",
			"Voice":"vostfr",
			"Picture":"https://image.adkami.com/mini/100.jpg?1607939020",
			"Hours":"20:15",
			"Day":"Dimanche"
		}
	]
}